base_url: /
domain: pyladies.com
author: A PyLady
subtitle: Women Who Love Coding in Python
title: PyLadies
post_limit: 1
date_format: "%B %d, %Y"
posts_url: /blog/<title>/
analytics: UA-36930002-1
feed: true
social:
    github: http://github.com/pyladies
    google_plus: https://plus.google.com/communities/108807002736066163985
archive_layout: archive.html
archives_url: /archives/
jinja:
    extensions:
        - jinja2.ext.loopcontrols
tag_layout: tag.html
tags_url: /tags/
misaka:
    render_flags:
        toc: true

mapbox:
    api_key: pk.eyJ1IjoiaGVsZW5zdCIsImEiOiJiZmZhYjYxMzc1ZGMzNmI3MjdlNmNkMTQ0MGJkZDdmNyJ9.6mfnxn0mORV5Gt73x_smtg

chapters:
    - name:      Amsterdam, the Netherlands
      meetup_id: 8160762
      website: amsterdam
      image: pyladies_amsterdam.jpeg
      email: amsterdam@pyladies.com
      twitter: PyLadiesAMS
      meetup: PyLadiesAMS
      location:
            latitude: 52.374436
            longitude: 4.8979956033677

    # - name:      Ann Arbor
    #   meetup_id: 10841992

    - name:      Antananarivo, MDG
      website: tnr
      image: pyladies_tnr.png
      email: tnr@pyladies.com
      twitter: PyladiesMDG
      location:
            latitude: -18.9333
            longitude: 47.5167

    - name:      Aracati, Brazil
      external_website: false
      image: pyladies-aracati.png
      email: aracati@pyladies.com
      twitter: PyladiesAracati
      meetup: PyladeisAracati
      location:
            latitude: -4.5611543
            longitude: -37.7689913

    - name:      Atlanta, GA
      meetup_id: 4507652
      website: atl
      image: pyladies_dc_atl_sea_tor.png
      email: atl@pyladies.com
      twitter: pyladiesATL
      meetup: pyladiesATL
      location:
            latitude: 33.7490987
            longitude: -84.3901849

    - name:      Austin, TX
      meetup_id: 5947662
      website: atx
      image: pyladies_atx.jpeg
      email: atx@pyladies.com
      twitter: pyladiesATX
      meetup: pyladies-atx
      location:
            latitude: 30.2711286
            longitude: -97.7436995

    - name:      Australia
      website: http://australia.pyladies.com/
      external_ website: true
      image: pyladies_australia.png
      email: australia@pyladies.com
      facebook: pyladiesau
      github: PyLadiesAU
      twitter: pyladiesau
      location:
            latitude: -24.7761086
            longitude: 134.755

    - name:      Bangalore, India
      meetup_id: 9301202
      website: blr
      image: pyladies_dc_atl_sea_tor.png
      email: bangalore@pyladies.com
      twitter: pyladiesblore
      meetup: PyladiesBangalore
      location:
            latitude: 12.9791703
            longitude: 77.5912429
    # - name:      Barcelona
    #   meetup_id: 10496402

    - name: Bauchi, NG
      meetup_id: 243646248
      website: NG
      image: pyladies_dc_atl_sea_tor.png
      email: bauchi@pyladies.com
      twitter: pyladiesbauchi
      location:
            latitude: 10.3010
            longitude: 9.8237

    - name: Belem, Brazil
      external_website: true
      image: pyladies_belem.jpg
      email: belem@pyladies.com
      facebook: pyladiesbelem
      location:
            latitude: -1.3410047
            longitude: -48.5904714

    - name:      Belo Horizonte, Brazil
      website: http://bh.pyladies.com
      external_website: false
      image: pyladies-bh.png
      email: bh@pyladies.com
      twitter: pyladiesbh
      meetup: PyLadies-BH-Meetup
      location:
            latitude: -19.912998
            longitude: -43.940933

    - name:      Berlin, Germany
      meetup_id: 9206152
      website: http://berlin.pyladies.com
      external_website: true
      image: pyladies_berlin.png
      email: berlin@pyladies.com
      twitter: PyLadiesBer
      meetup: PyLadies-Berlin
      location:
            latitude: 52.5170365
            longitude: 13.3888599

    - name:      Bhubaneswar, India
      website: bbsr
      image: pyladies_logo.png
      email: bbsr@pyladies.com
      twitter: PyladiesBbsr
      location:
            latitude: 20.2961
            longitude: 85.8245

    - name:     Boulder, CO
      image: pyladies_colorado.png
      email: boulder@pyladies.com
      twitter: PyLadiesCO
      location:
          latitude: 40.0150
          longitude: -105.2705

    - name:      Boston, MA
      meetup_id: 8623152
      website: http://boston.pyladies.com
      external_website: true
      image: pyladies_boston_logo_2_white.png
      email: boston@pyladies.com
      twitter: PyLadiesBoston
      meetup: PyLadies-Boston
      location:
            latitude: 42.3604823
            longitude: -71.0595678

    - name:      Brasilia, Brazil
      website: http://brasil.pyladies.com
      external_website: true
      image: pyladies_brasilia.png
      email: brasil@pyladies.org
      facebook: PyLadiesbsb
      github: pyladies-brazil
      twitter: pyladiesbrazil
      location:
            latitude: -15.7941454
            longitude: -47.8825479

    - name:      Brazil
      website: http://brasil.pyladies.com/
      external_website: true
      image: pyladies_brasil.png
      email: brazil@pyladies.com
      facebook: PyLadiesBrazil
      github: pyladies-brazil
      twitter: PyLadiesBrazil
      location:
            latitude: -10.3333333
            longitude: -53.2


    - name:      Brno, Czech Republic
      meetup_id: 5160912
      website: cz
      image: pyladies_sd_brno.png
      email: brno@pyladies.com
      twitter: pyladiesCZ
      meetup: pyladiescz
      location:
            latitude: 49.1922443
            longitude: 16.6113382

    - name:      Campinas, Brazil
      website: http://brasil.pyladies.com
      external_website: true
      image: pyladies_campinas.png
      email: campinas@pyladies.com
      facebook: pyladiescps
      github: pyladiescps
      twitter: pyladiescps
      location:
            latitude: -22.909992
            longitude: -47.063006

    - name: Canakkale, Turkey
      website: tr
      image: pyladies_dc_atl_sea_tor.png
      email: tr@pyladies.com
      twitter: PyladiesTurkey
      location:
            latitude: 39.9167
            longitude: 32.8333

    - name: Caxias do Sul, Brazil
      website: http://caxiasdosul.pyladies.com
      external_website: true
      image: pyladies_caxiasdosul.jpg
      email: caxiasdosul@pyladies.com
      meetup: PyLadiesCaxiasdoSul
      facebook: pyladiescaxias
      github: PyladiesCaxias
      location:
          latitude: -29.1680600
          longitude: -51.1794400

    - name:      Charleston, SC
      meetup_id: 8401402
      website: http://charleston.pyladies.com
      external_website: true
      image: pyladies_charleston.png
      email: charleston@pyladies.com
      twitter: PyLadiesCHS
      meetup: PyLadies-Charleston
      location:
            latitude: 32.7876012
            longitude: -79.9402728

    - name: Chicago, IL
      meetup_id: 18320041
      website: chicago
      image: pyladies_chicago.png
      email: chicago@pyladies.com
      twitter: PyLadiesChicago
      meetup: Chicago-PyLadies
      location:
            latitude: 41.8755546
            longitude: -87.6244212

    - name: Cleveland, OH
      meetup_id: 255599015
      website: https://clepyladies.github.io/pyladies-official
      external_website: true
      email: cle@pyladies.com
      twitter: CLEPyLadies
      meetup: CLE-PyLadies
      facebook: CLEPyLadies
      instagram: CLEPyLadies
      location:
            latitude: 41.528
            longitude: -81.6937
      
    - name:      Curitiba, Brazil
      website: http://brasil.pyladies.com/
      external_website: true
      image: pyladies-curitiba.png
      email: curitiba@pyladies.com
      facebook: PyLadiesCuritiba
      github: pyladies-curitiba
      twitter: pyladiescuritib
      location:
            latitude: -25.4167
            longitude: -49.2500


    - name: Dallas, TX
      meetup_id: 2292131
      website: dallas
      image: pyladies_dc_atl_sea_tor.png
      email: dfw@pyladies.com
      twitter: pyladiesdallas
      meetup: dfw-pyladies
      location:
            latitude: 32.7776162
            longitude: -96.7970585

    - name:     Denver, CO
      image: pyladies_colorado.png
      email: denver@pyladies.com
      twitter: PyLadiesDEN
      location:
          latitude: 39.7392
          longitude: -104.9903

    - name:      Dublin, Ireland
      meetup_id: 13320732
      website: dublin
      image: pyladies-dublin.png
      email: dublin@pyladies.com
      twitter: pyladiesdub
      meetup: PyLadiesDublin
      location:
            latitude: 53.3497645
            longitude: -6.2602732

    - name: Duque de Caxias, RJ
      website: http://duquedecaxias.pyladies.com/
      external_website: true
      image: pyladies_dc_atl_sea_tor.png
      email: duquedecaxias@pyladies.com
      twitter: PyLadiesCaxias
      facebook: PyLadiesDuqueDeCaxias
      github: pyladies-dcaxias
      location:
            latitude: -22.6433502
            longitude: -43.4457786

    - name:      Edinburgh, Scotland
      meetup_id: 15507962
      website: edinburgh
      image: pyladies_edinburgh_logo2.png
      email: edinburgh@pyladies.com
      twitter: PyLadiesEdin
      meetup: PyLadiesEdinburgh
      location:
            latitude: 55.9531
            longitude: -3.1889

    - name: Grand Rapids, MI
      website: http://grandrapids.pyladies.com
      external_website: true
      meetup_id: 22260794
      image: pyladies_grandrapids.png
      email: grandrapids@pyladies.com
      twitter: PyladiesGR
      facebook: pyladiesgrandrapids
      meetup: PyLadiesGrandRapids
      location:
            latitude: 42.9634
            longitude: -85.6681

    - name: Gujarat, India
      website: gtu.ac.in
      image: pyladies-sq-logo.png
      email: gtu@pyladies.com
      twitter: PyladiesGTU
      location:
            latitude: 23.253627
            longitude: 72.6338228

    - name:   Hamburg, Germany
      website: http://hamburg.pyladies.com
      external_website: true
      image: pyladies_hamburg.png
      email: hamburg@pyladies.com
      twitter: PyLadiesHH
      meetup: PyLadies-Hamburg
      location:
            latitude: 53.5511
            longitude: 9.9937

    - name:      Helsinki, Finland
      meetup_id: 13995752
      website: helsinki
      image: pyladies_helsinki.png
      email: helsinki@pyladies.com
      meetup: Helsinki-Pyladies
      location:
            latitude: 60.1666277
            longitude: 24.9435079

    - name: Ho Chi Minh, Vietnam
      meetup_id: 248903240
      email: hcmc@pyladies.com
      facebook: PyladiesHCM
      twitter: pyladies1
      meetup: hcmc-pyladies
      location:
            latitude: 10.776889
            longitude: 106.700806

    - name: Houston, TX
      meetup_id: 253185498
      image: pylady_geek.png
      email: Houston.pyladies@gmail.com
      twitter: HPyladies
      meetup: Houston_PyLadies
      location:
            latitude: 29.7604
            longitude: 95.3698

    - name:      India
      meetup_id: 9042722
      image: pyladies_in.png
      email: pyladies@openlabs.co.in
      twitter: PyladiesIndia
      meetup: PyladiesIndia
      location:
            latitude: 22.3511148
            longitude: 78.6677428

    - name: Kampala, Uganda
      meetup_id: 244079349
      website: kampala
      image: pyladies_kampala.png
      email: kampala@pyladies.com
      twitter: pyladieskla
      meetup: pyladies-kampala
      location:
            latitude: 0.347596
            longitude: 32.582520

    - name:      Kyoto
      website: http://pyladies-kyoto.connpass.com
      external_website: true
      image: pyladies-sq-logo.png
      facebook: PyLadiesKyoto
      google_plus: https://plus.google.com/u/0/communities/113677670074162908256
      location:
            latitude: 35.0117
            longitude: 135.7683

    - name:      Lisbon, Portugal
      image: pyladies_dc_atl_sea_tor.png
      email: lisboa@pyladies.com
      twitter: PyLadiesLisboa
      location:
            latitude: 38.736946
            longitude: -9.142685

    - name:      London, UK
      meetup_id: 13106102
      image: pyladies_london.png
      email: london@pyladies.com
      twitter: PyLadiesLondon
      meetup: pyladieslondon
      location:
            latitude: 51.507222
            longitude: -0.1275

    - name:      Los Angeles, CA
      meetup_id: 2288171
      website: la
      image: pyladies_la.jpeg
      email: la@pyladies.com
      twitter: pyladiesLA
      meetup: Pyladies-LA
      location:
            latitude: 34.053717
            longitude: -118.2427266

    - name: Mavs PyLadies
      meetup_id: 95771702
      website: mavs
      image: pyladies-geek-grey-blue.png
      email: mavs@pyladies.com
      facebook: pyladiesmavs
      meetup: PyLadies-Arlington
      location:
            latitude: 32.7302385
            longitude: -97.1140594

    - name: Maceio, Brazil
      meetup_id: 203416475
      image: pyladies_maceio.png
      email: maceio@pyladies.com
      twitter: "@maceiopyladies"
      facebook: www.facebook.com/profile.php?id=100011766016329
      meetup: Maceio PyLadies
      location:
            latitude: -9.6498487
            longitude: -35.708949200000006

    - name:      Milan, Italy
      meetup_id: 186995752
      image: pyladies_dc_atl_sea_tor.png
      email: milan@pyladies.com
      twitter: PyLadiesMilan
      meetup: PyLadies-Milano
      facebook: PyLadies-Milano
      location:
            latitude: 45.4667971
            longitude: 9.1904984

    - name:      Melbourne, Australia
      website: http://melbourne.pyladies.com/
      external_website: true
      meetup_id: 19669577
      image: pyladies_melbourne.jpeg
      email: melbourne@pyladies.com
      twitter: PyLadiesMEL
      github: pyladiesmelbourne
      meetup: PyLadies-Melbourne
      facebook: pyladiesau
      location:
            latitude: -37.813611
            longitude: 144.963056

    - name:      Montreal, Canada
      meetup_id: 14872062
      website: mtl
      image: pyladies_dc_atl_sea_tor.png
      email: montreal@pyladies.com
      twitter: pyladiesMTL
      meetup: PyLadiesMTL
      location:
            latitude: 45.5115944
            longitude: -73.6051013

    - name: Morocco
      meetup_id: 193620926
      website: MA
      image: pyladies_ma.png
      email: MA@pyladies.com
      twitter: PyLadiesMa
      #meetup:
      location:
            latitude: 33.971590
            longitude: -6.849813

    - name:      Mumbai, India
      image: amchi_pyladies.png
      email: mum@pyladies.com
      location:
            latitude: 18.9523804
            longitude: 72.8327112

    - name:      Nashville, TN
      website: nash
      image: pyladies_nashville.jpeg
      email: info@pyladies.com
      twitter: PyNashLadies
      meetup: Nashville-PyLadies
      location:
            latitude: 36.1622296
            longitude: -86.7743531

    - name:      Natal, Brazil
      website: http://pyladiesnatal.github.io/
      external_website: true
      image: pyladies_natal.png
      email: brasil@pyladies.org
      facebook: PyLadiesbrazil
      github: pyladies-brazil
      twitter: pyladiesbrazil
      location:
            latitude: -5.7792569
            longitude: -35.200916

    - name:      New York, NY
      meetup_id: 4576312
      website: http://nyc.pyladies.com
      external_website: true
      image: pyladies_ny.png
      email: nyc@pyladies.com
      twitter: NYCpyladies
      meetup: nyc-pyladies
      location:
            latitude: 40.7305991
            longitude: -73.9865812

    - name: Nigeria
      meetup_id: 201759643
      website: dc
      image: pyladies_dc_atl_sea_tor.png
      email: nigeria@pyladies.com
      twitter: PyladiesNigeria
      meetup: PyLadies Nigeria
      location:
            latitude: 6.465422
            longitude: 3.406448

    - name: Ojere, NG
      image: pyladies_dc_atl_sea_tor.png
      email: ojere@pyladies.com
      twitter: pyladiesojere
      meetup: ojere pyladies
      location:
            latitude: 7.1557102
            longitude: 3.3450899

    - name: Paris, France
      meetup_id: 18600594
      website: paris
      image: pyladies_dc_atl_sea_tor.png
      email: paris@pyladies.com
      twitter: PyLadiesParis
      meetup: PyLadies-Paris
      location:
            latitude: 48.8600006
            longitude: 2.3399999

    - name: Poland
      meetup_id: 185065560
      website: pl
      image: pyladies_poland.png
      email: poland@pyladies.com
      twitter: PyladiesPL
      facebook: pyladiespl
      location:
            latitude: 52.0977181
            longitude: 19.0258159

    - name:      Portland, OR
      meetup_id: 4808882
      website: http://pyladiespdx.github.io
      external_website: true
      image: pyladies_pdx.png
      email: pyladies.pdx@gmail.com
      twitter: pyladies_pdx
      meetup: pyladies-pdx
      meetup: pyladies-rdu
      location:
            latitude: 45.5202471
            longitude: -122.6741949

    - name: Porto Alegre, Brazil
      website: https://pyladiespoa.pythonanywhere.com
      external_website: true
      image: pyladies-poa.png
      email: pyladiespoa@openmailbox.org
      facebook: PoaPyladies
      github: pyladiespoa
      twitter: Pyladiespoas
      location:
            latitude: -30.0333
            longitude: -51.2

    - name:      Pune, India
      website: http://pune.pyladies.com/
      external_website: true
      image: pyladies_pune.jpeg
      email: pune@pyladies.com
      twitter: PyladiesPune
      facebook: PyLadiesPune
      meetup: PyLadies-Pune
      location:
            latitude: 18.486467
            longitude: 73.816520

    - name:      Raleigh-Durham, NC
      meetup_id: 16760422
      website: rdu
      image: pyladies_rdu.png
      email: rdu@pyladies.com
      twitter: pyladiesrdu
      meetup: pyladies-rdu
      location:
            latitude: 35.987644
            longitude: -78.6720959

    - name:   Recife, Brazil
      website: http://brasil.pyladies.com
      external_website: true
      image: pyladies_recife.png
      email: recife@pyladies.org
      facebook: PyLadies-Recife
      github: pyladies-brazil
      twitter: pyladiesrecife
      location:
            latitude: -8.0475458
            longitude: -34.8769621

    - name:   Rio de Janeiro, Brazil
      website: http://brasil.pyladies.com
      external_website: true
      image: pyladies_rio.png
      email: brasil@pyladies.org
      facebook: PyLadiesRio
      github: pyladies-brazil
      twitter: rio_pyladies
      location:
            latitude: -22.9082998
            longitude: -43.1970773

    - name:      Salt Lake Area, Utah
      meetup_id: 8161032
      website: saltlake
      image: pyladies_sd_brno.png
      email: saltlake@pyladies.com
      location:
            latitude: 41.6449294
            longitude: -112.2535647

    - name:   Saint Petersburg, Russia
      website: http://spb.pyladies.com
      external_website: true
      image: pyladies_spb.png
      facebook: pyladies.spb
      email: spb@pyladies.com
      twitter: pyladies_spb
      timepad: pyladies-spb
      location:
            latitude: 59.9343
            longitude: 30.3351


    - name:      Salvador, Brazil
      website: http://salvador.pyladies.com/
      external_website: true
      image: pyladies_salvador_logo.png
      email: salvador@pyladies.com
      facebook: PyLadiesSalvador
      github: PyLadiesSalvador
      meetup: PyLadies-Bahia
      location:
            latitude: -12.9704
            longitude: -38.5124

    # - name:      San Antonio
    #   meetup_id: 12994802

    - name:      San Diego, CA
      meetup_id: 5089102
      website: sd
      image: pyladies_sd_brno.png
      email: juliet.oberding@gmail.com
      meetup: sd-pyladies
      location:
            latitude: 32.7174209
            longitude: -117.1627714

    - name:      San Francisco, CA
      meetup_id: 3604052
      website: sf
      image: pyladies_sf_logo.png
      email: sf@pyladies.com
      twitter: pyladiessf
      meetup: pyladiessf
      location:
            latitude: 37.7792768
            longitude: -122.4192704

    - name:      Sao Carlos, Brazil
      website: http://brasil.pyladies.com
      external_website: true
      image: pyladies_saocarlos.png
      email: saocarlos@pyladies.org
      facebook: PyLadiesSaoCarlos
      github: pyladies-brazil
      twitter: pyladiesbrazil
      location:
            latitude: -22.0087175
            longitude: -47.8909142

    - name:      Seattle, WA
      meetup_id: 5411282
      website: sea
      image: pyladies_dc_atl_sea_tor.png
      email: seattle-pyladies@pyladies.com
      twitter: pyladiesSEA
      meetup: seattle-pyladies
      location:
            latitude: 47.6038321
            longitude: -122.3300624

    - name:      Seoul, Korea
      meetup_id: 10708842
      website: seoul
      image: pyladies-seoul-logo.png
      email: seoul@pyladies.com
      twitter: PyladiesSeoul
      facebook: pyladieseoul
      google_plus: https://plus.google.com/106890062399007175692/posts
      location:
            latitude: 37.5666791
            longitude: 126.9782914

    - name:      Silicon Valley, CA
      meetup_id: 19180337
      website: http://siliconvalley.pyladies.com
      image: pyladies-silicion-logo.png
      email: siliconvalley@pyladies.com
      meetup: PyLadies-Silicon-Valley
      facebook: svpyladies
      github: SiliconValleyPyLadies
      location:
            latitude: 37.415236
            longitude: -122.0254301


    - name: Singapore
      meetup_id: 14910222
      website: sg
      image: pyladies_dc_atl_sea_tor.png
      email: sg@pyladies.com
      twitter: pyladiessg
      meetup: PyLadies-SG
      location:
            latitude: 1.2904527
            longitude: 103.852038

    - name: Spain
      image: pyladies_es.png
      email: spain@pyladies.com
      twitter: PyLadies_ES
      location:
            latitude: 40.0028028
            longitude: -4.003104

    - name:      Stockholm, Sweden
      meetup_id: 7660062
      website: stockholm
      image: pyladies_dc_atl_sea_tor.png
      email: stockholm@pyladies.com
      meetup: pyladiesstockholm
      location:
            latitude: 59.3251172
            longitude: 18.0710935

    - name:      Sydney, Australia
      meetup_id: 18987204
      email: sydney@pyladies.com
      facebook: pyladiesau
      twitter:  sydneypyladies
      meetup: Sydney-PyLadies
      location:
            latitude: -33.865
            longitude: 151.209444

    - name:      Taiwan
      meetup_id: 14748112
      website: http://tw.pyladies.com
      external_website: true
      image: pyladies-tw-logo.png
      email: pyladies.tw@gmail.com
      twitter: PyLadiesTW
      meetup: PyLadiesTW
      location:
            latitude: 23.9739374
            longitude: 120.9820179

    - name: Teresina, Brazil
      external_website: true
      image: pyladies_teresina.png
      email: teresina@pyladies.com
      facebook: PyLadiesTeresina
      twitter: pyladiesthe
      location:
            latitude: -5.1816948
            longitude: -43.0212865

    - name:      Tirana, Albania
      email: tirana@pyladies.com
      facebook: PyLadiesTirana
      github: PyLadiesTirana
      twitter: PyLadiesTirana
      location:
            latitude: 41.327953
            longitude: 19.819025

    - name:      Tokyo
      website: http://tokyo.pyladies.com/
      external_website: true
      image: pyladies_tokyo.png
      email: pyladies-tokyo@googlegroups.com
      facebook: PyLadiesTokyo
      github: PyLadiesTokyo
      twitter: PyLadiesTokyo
      location:
            latitude: 35.6
            longitude: 139.7

    - name:      Toronto, Canada
      meetup_id: 6488102
      website: toronto
      image: pyladies_dc_atl_sea_tor.png
      email: info@pyladies.com
      meetup: Pyladies-Toronto
      location:
            latitude: 43.6529206
            longitude: -79.3849008

    - name: Tunisia
      website: tunisia
      image: pyladies_dc_atl_sea_tor.png
      facebook: groups/458792744204403/
      location:
            latitude: 33.8439408
            longitude: 9.400138

    - name: Vale do Paraiba, Brazil
      website: http://vale.pyladies.com
      external_website: true
      image: pyladies_vale.jpg
      email: vale@pyladies.com
      facebook: pyladiesvale
      github: pyladiesvale
      twitter: pyladiesvale
      location:
            latitude: -23.2237
            longitude: -45.9009

    - name: Vancouver, Canada
      meetup_id: 18607403
      website: vancouver
      image: pyladies_dc_atl_sea_tor.png
      email: vancouver@pyladies.com
      twitter: pyladiesvan
      meetup: PyLadies-Vancouver
      location:
            latitude: 49.2608944
            longitude: -123.1139383

    - name: Vienna, Austria
      meetup_id: 7538042
      website: vienna
      image: pyladies_dc_atl_sea_tor.png
      email: vienna@pyladies.com
      twitter: pyladies_vie
      meetup: pyladies-vienna
      location:
            latitude: 48.2083537
            longitude: 16.3725042

    - name: Washington, DC
      meetup_id: 2292131
      website: dc
      image: pyladies_dc_atl_sea_tor.png
      email: jackiekazil@pyladies.com
      twitter: pyladiesdc
      meetup: dc-pyladies
      location:
            latitude: 38.8949549
            longitude: -77.0366456

    - name: Zaria, Kaduna
      meetup_id:
      website:
      image: pyladies_dc_atl_sea_tor.png
      email: zaria@pyladies.com
      twitter:
      meetup:
      location:
            latitude: 7.6559
            longitude: 11.1517
